{
  "type": "FeatureCollection",
  "generator": "overpass-turbo",
  "copyright": "The data included in this document is from www.openstreetmap.org. The data is made available under ODbL.",
  "timestamp": "2023-11-13T06:40:35Z",
  "features": [
    {
      "type": "Feature",
      "properties": {
        "@id": "way/561449479",
        "highway": "residential",
        "@tainted": true
      },
      "geometry": {
        "type": "LineString",
        "coordinates": [
          [
            72.6912489,
            32.783566
          ],
          [
            72.6914302,
            32.7840701
          ]
        ]
      },
      "id": "way/561449479"
    },
    {
      "type": "Feature",
      "properties": {
        "@id": "node/211325636",
        "addr:street": "Damn-i-koh Road",
        "amenity": "restaurant",
        "cuisine": "burger;tea;coffee_shop;asian",
        "is_in": "Islamabad",
        "name": "Daman-e-Koh",
        "opening_hours": "24/7",
        "tourism": "viewpoint"
      },
      "geometry": {
        "type": "Point",
        "coordinates": [
          73.0570403,
          33.7383666
        ]
      },
      "id": "node/211325636"
    },
    {
      "type": "Feature",
      "properties": {
        "@id": "node/240218764",
        "addr:city": "اسلام آباد",
        "addr:city:ar": "إسلام آباد",
        "addr:city:en": "Islamabad",
        "addr:city:ks": "اِسلام آبادٖ",
        "addr:city:pnb": "اسلام آباد",
        "addr:city:ps": "اسلام آباد",
        "addr:city:sd": "اسلام آباد",
        "addr:city:ur": "اسلام آباد",
        "addr:street": "Kohistan Road",
        "amenity": "hospital",
        "healthcare": "hospital",
        "name": "Ali Medical Centre",
        "name:en": "Ali Medical Centre"
      },
      "geometry": {
        "type": "Point",
        "coordinates": [
          73.0417644,
          33.7104738
        ]
      },
      "id": "node/240218764"
    },
    {
      "type": "Feature",
      "properties": {
        "@id": "node/247682428",
        "amenity": "school",
        "is_in": "F-6/2, Islamabad",
        "name": "Islamabad College for Girls"
      },
      "geometry": {
        "type": "Point",
        "coordinates": [
          73.0728704,
          33.7302916
        ]
      },
      "id": "node/247682428"
    },
    {
      "type": "Feature",
      "properties": {
        "@id": "node/247946640",
        "addr:city": "اسلام آباد",
        "addr:city:ar": "إسلام آباد",
        "addr:city:ks": "اِسلام آبادٖ",
        "addr:city:pnb": "اسلام آباد",
        "addr:city:ps": "اسلام آباد",
        "addr:city:sd": "اسلام آباد",
        "addr:city:ur": "اسلام آباد",
        "addr:street": "حنا روڈ",
        "amenity": "hospital",
        "healthcare": "hospital",
        "name": "نوری ہسپتال",
        "name:en": "Noori Hospital",
        "name:ur": "نوری ہسپتال"
      },
      "geometry": {
        "type": "Point",
        "coordinates": [
          73.0545225,
          33.6999192
        ]
      },
      "id": "node/247946640"
    },
    {
      "type": "Feature",
      "properties": {
        "@id": "node/248864319",
        "amenity": "school",
        "is_in": "G-10/3, Islamabad",
        "name": "FG Boys Model School"
      },
      "geometry": {
        "type": "Point",
        "coordinates": [
          73.0202663,
          33.684807
        ]
      },
      "id": "node/248864319"
    },
    {
      "type": "Feature",
      "properties": {
        "@id": "node/253018400",
        "amenity": "hospital",
        "healthcare": "hospital",
        "is_in": "G-6, Islamabad",
        "name": "Poly Clinic Hospital"
      },
      "geometry": {
        "type": "Point",
        "coordinates": [
          73.0828053,
          33.7211006
        ]
      },
      "id": "node/253018400"
    },
    {
      "type": "Feature",
      "properties": {
        "@id": "node/253180176",
        "addr:city": "Karachi",
        "addr:street": "Super Highway",
        "amenity": "restaurant",
        "cuisine": "regional",
        "delivery": "no",
        "name": "Khanji - Highway",
        "outdoor_seating": "yes",
        "smoking": "yes",
        "takeaway": "yes"
      },
      "geometry": {
        "type": "Point",
        "coordinates": [
          67.2144484,
          24.985007
        ]
      },
      "id": "node/253180176"
    },
    {
      "type": "Feature",
      "properties": {
        "@id": "node/254765936",
        "amenity": "school",
        "created_by": "Potlatch 0.8",
        "name": "Sir Syed Public School"
      },
      "geometry": {
        "type": "Point",
        "coordinates": [
          73.077147,
          33.6051071
        ]
      },
      "id": "node/254765936"
    },
    {
      "type": "Feature",
      "properties": {
        "@id": "node/254976251",
        "addr:city": "اسلام آباد",
        "addr:city:ar": "إسلام آباد",
        "addr:city:en": "Islamabad",
        "addr:city:ks": "اِسلام آبادٖ",
        "addr:city:pnb": "اسلام آباد",
        "addr:city:ps": "اسلام آباد",
        "addr:city:sd": "اسلام آباد",
        "addr:city:ur": "اسلام آباد",
        "addr:street": "Street 4",
        "amenity": "restaurant",
        "name": "Golden Dragon"
      },
      "geometry": {
        "type": "Point",
        "coordinates": [
          73.0577749,
          33.7263387
        ]
      },
      "id": "node/254976251"
    },
    {
      "type": "Feature",
      "properties": {
        "@id": "node/255764767",
        "amenity": "hospital",
        "emergency": "yes",
        "healthcare": "hospital",
        "is_in": "Rawalpindi, Punjab, Pakistan",
        "name": "CMH"
      },
      "geometry": {
        "type": "Point",
        "coordinates": [
          73.0492626,
          33.5816409
        ]
      },
      "id": "node/255764767"
    },
    {
      "type": "Feature",
      "properties": {
        "@id": "node/255910264",
        "amenity": "school",
        "created_by": "Potlatch 0.8a"
      },
      "geometry": {
        "type": "Point",
        "coordinates": [
          73.0541945,
          33.6963847
        ]
      },
      "id": "node/255910264"
    },
    {
      "type": "Feature",
      "properties": {
        "@id": "node/255954369",
        "amenity": "hospital",
        "created_by": "Potlatch 0.8a",
        "is_in": "Rawalpindi Cantt.",
        "name": "Healthways"
      },
      "geometry": {
        "type": "Point",
        "coordinates": [
          73.057514,
          33.5952769
        ]
      },
      "id": "node/255954369"
    },
    {
      "type": "Feature",
      "properties": {
        "@id": "node/256371663",
        "amenity": "school",
        "created_by": "Potlatch 0.8a",
        "is_in": "H-8/4, Islamabad",
        "name": "Beaconhouse Margalla Campus"
      },
      "geometry": {
        "type": "Point",
        "coordinates": [
          73.066608,
          33.6823327
        ]
      },
      "id": "node/256371663"
    },
    {
      "type": "Feature",
      "properties": {
        "@id": "node/256825235",
        "amenity": "school",
        "created_by": "Potlatch 0.8b",
        "is_in": "F-7/2, Islamabad",
        "name": "Froebel's International School"
      },
      "geometry": {
        "type": "Point",
        "coordinates": [
          73.0531003,
          33.722589
        ]
      },
      "id": "node/256825235"
    },
    {
      "type": "Feature",
      "properties": {
        "@id": "node/271065685",
        "amenity": "school",
        "name": "Pak Railway Academy"
      },
      "geometry": {
        "type": "Point",
        "coordinates": [
          74.3593391,
          31.4875144
        ]
      },
      "id": "node/271065685"
    },
    {
      "type": "Feature",
      "properties": {
        "@id": "node/271096995",
        "amenity": "school",
        "name": "DPS Girls"
      },
      "geometry": {
        "type": "Point",
        "coordinates": [
          74.4007125,
          31.4739484
        ]
      },
      "id": "node/271096995"
    },
    {
      "type": "Feature",
      "properties": {
        "@id": "node/271105745",
        "addr:city": "Lahore",
        "addr:street": "St 29 Sec W Ph 3",
        "amenity": "hospital",
        "emergency": "yes",
        "healthcare": "hospital",
        "name": "DHA Medical Center Phase III"
      },
      "geometry": {
        "type": "Point",
        "coordinates": [
          74.3714984,
          31.4767342
        ]
      },
      "id": "node/271105745"
    },
    {
      "type": "Feature",
      "properties": {
        "@id": "node/271107138",
        "amenity": "school",
        "created_by": "Potlatch 0.9c",
        "is_in": "Lahore DHA, Lahore, Punjab, Pakistan",
        "name": "DPS Sec Z Ph 3"
      },
      "geometry": {
        "type": "Point",
        "coordinates": [
          74.3835941,
          31.4711759
        ]
      },
      "id": "node/271107138"
    },
    {
      "type": "Feature",
      "properties": {
        "@id": "node/271110942",
        "amenity": "school"
      },
      "geometry": {
        "type": "Point",
        "coordinates": [
          74.3707576,
          31.4671696
        ]
      },
      "id": "node/271110942"
    },
    {
      "type": "Feature",
      "properties": {
        "@id": "node/271138954",
        "amenity": "school",
        "created_by": "Potlatch 0.9c",
        "name": "The Lhr ALMA"
      },
      "geometry": {
        "type": "Point",
        "coordinates": [
          74.38662,
          31.4814649
        ]
      },
      "id": "node/271138954"
    },
    {
      "type": "Feature",
      "properties": {
        "@id": "node/271140455",
        "amenity": "school",
        "created_by": "Potlatch 0.9c",
        "name": "Lhr Grammer"
      },
      "geometry": {
        "type": "Point",
        "coordinates": [
          74.3909459,
          31.4809232
        ]
      },
      "id": "node/271140455"
    },
    {
      "type": "Feature",
      "properties": {
        "@id": "node/271166561",
        "amenity": "school",
        "created_by": "Potlatch 0.9c",
        "name": "Boys College"
      },
      "geometry": {
        "type": "Point",
        "coordinates": [
          74.384834,
          31.4911305
        ]
      },
      "id": "node/271166561"
    },
    {
      "type": "Feature",
      "properties": {
        "@id": "node/271696527",
        "amenity": "school",
        "created_by": "Potlatch 0.10e",
        "name": "Girls Collage"
      },
      "geometry": {
        "type": "Point",
        "coordinates": [
          74.3900677,
          31.4629183
        ]
      },
      "id": "node/271696527"
    },
    {
      "type": "Feature",
      "properties": {
        "@id": "node/271785889",
        "amenity": "school",
        "created_by": "Potlatch 0.9c",
        "is_in": "H-8/4, Islamabad",
        "name": "OPF Boys College"
      },
      "geometry": {
        "type": "Point",
        "coordinates": [
          73.0704687,
          33.6827895
        ]
      },
      "id": "node/271785889"
    },
    {
      "type": "Feature",
      "properties": {
        "@id": "node/271786131",
        "amenity": "school",
        "created_by": "Potlatch 0.9c",
        "is_in": "H-8/4, Islamabad",
        "name": "Islamabad Convent"
      },
      "geometry": {
        "type": "Point",
        "coordinates": [
          73.0712068,
          33.6817039
        ]
      },
      "id": "node/271786131"
    },
    {
      "type": "Feature",
      "properties": {
        "@id": "node/272275806",
        "amenity": "school",
        "created_by": "Potlatch 0.9c"
      },
      "geometry": {
        "type": "Point",
        "coordinates": [
          74.3748012,
          31.4631247
        ]
      },
      "id": "node/272275806"
    },
    {
      "type": "Feature",
      "properties": {
        "@id": "node/272338687",
        "amenity": "school",
        "created_by": "Potlatch 0.9c"
      },
      "geometry": {
        "type": "Point",
        "coordinates": [
          74.3820277,
          31.5040876
        ]
      },
      "id": "node/272338687"
    },
    {
      "type": "Feature",
      "properties": {
        "@id": "node/272388931",
        "amenity": "school",
        "created_by": "Potlatch 0.9c"
      },
      "geometry": {
        "type": "Point",
        "coordinates": [
          74.3740884,
          31.5693044
        ]
      },
      "id": "node/272388931"
    },
    {
      "type": "Feature",
      "properties": {
        "@id": "node/275772610",
        "addr:city:ar": "إسلام آباد",
        "addr:city:en": "Islamabad",
        "addr:city:ks": "اِسلام آبادٖ",
        "addr:city:pnb": "اسلام آباد",
        "addr:city:ps": "اسلام آباد",
        "addr:city:sd": "اسلام آباد",
        "addr:city:ur": "اسلام آباد",
        "addr:street": "Rohtas Road",
        "name": "Laraib Inn",
        "source": "Yahoo + Local Knowledge",
        "tourism": "hotel"
      },
      "geometry": {
        "type": "Point",
        "coordinates": [
          73.0362653,
          33.6822331
        ]
      },
      "id": "node/275772610"
    },
    {
      "type": "Feature",
      "properties": {
        "@id": "node/296092445",
        "amenity": "school",
        "created_by": "Potlatch 0.10f",
        "name": "Govt High School No.1 Haripur"
      },
      "geometry": {
        "type": "Point",
        "coordinates": [
          72.933583,
          33.994086
        ]
      },
      "id": "node/296092445"
    },
    {
      "type": "Feature",
      "properties": {
        "@id": "node/296159440",
        "amenity": "school",
        "created_by": "Potlatch 0.10b",
        "name": "Darul Aluum Islamia Rehmania"
      },
      "geometry": {
        "type": "Point",
        "coordinates": [
          72.9313018,
          33.9989093
        ]
      },
      "id": "node/296159440"
    },
    {
      "type": "Feature",
      "properties": {
        "@id": "node/296160067",
        "amenity": "school",
        "created_by": "Potlatch 0.10b",
        "name": "Govt. Girl's Pilot School"
      },
      "geometry": {
        "type": "Point",
        "coordinates": [
          72.9354203,
          33.9952205
        ]
      },
      "id": "node/296160067"
    },
    {
      "type": "Feature",
      "properties": {
        "@id": "node/296344805",
        "amenity": "school",
        "created_by": "Potlatch 0.10b",
        "name": "Govt. Girl's College"
      },
      "geometry": {
        "type": "Point",
        "coordinates": [
          72.9312826,
          34.00081
        ]
      },
      "id": "node/296344805"
    },
    {
      "type": "Feature",
      "properties": {
        "@id": "node/296345225",
        "amenity": "hospital",
        "name": "D.H.Q. Hospital"
      },
      "geometry": {
        "type": "Point",
        "coordinates": [
          72.915155,
          33.9994153
        ]
      },
      "id": "node/296345225"
    },
    {
      "type": "Feature",
      "properties": {
        "@id": "node/296352940",
        "amenity": "school",
        "created_by": "Potlatch 0.10b",
        "name": "Fauji Foundation School"
      },
      "geometry": {
        "type": "Point",
        "coordinates": [
          72.9129148,
          33.9996003
        ]
      },
      "id": "node/296352940"
    },
    {
      "type": "Feature",
      "properties": {
        "@id": "node/296353603",
        "amenity": "school",
        "created_by": "Potlatch 0.10b",
        "name": "Gate of Knowledge"
      },
      "geometry": {
        "type": "Point",
        "coordinates": [
          72.9309221,
          33.9969034
        ]
      },
      "id": "node/296353603"
    },
    {
      "type": "Feature",
      "properties": {
        "@id": "node/296360951",
        "name": "Qureshi Hotel",
        "tourism": "hotel"
      },
      "geometry": {
        "type": "Point",
        "coordinates": [
          72.9330963,
          33.994134
        ]
      },
      "id": "node/296360951"
    },
    {
      "type": "Feature",
      "properties": {
        "@id": "node/296362514",
        "amenity": "school",
        "created_by": "Potlatch 0.10b",
        "name": "Govt.High School No.2"
      },
      "geometry": {
        "type": "Point",
        "coordinates": [
          72.9404605,
          33.9983964
        ]
      },
      "id": "node/296362514"
    },
    {
      "type": "Feature",
      "properties": {
        "@id": "node/296365795",
        "amenity": "school",
        "created_by": "Potlatch 0.10b",
        "name": "Sir Syed College"
      },
      "geometry": {
        "type": "Point",
        "coordinates": [
          72.9300664,
          34.0010435
        ]
      },
      "id": "node/296365795"
    },
    {
      "type": "Feature",
      "properties": {
        "@id": "node/296403549",
        "name": "Aafaq Hotel",
        "tourism": "hotel"
      },
      "geometry": {
        "type": "Point",
        "coordinates": [
          72.9431563,
          33.9956463
        ]
      },
      "id": "node/296403549"
    },
    {
      "type": "Feature",
      "properties": {
        "@id": "node/296413046",
        "amenity": "school",
        "is_in": "Haripur",
        "name": "Gov. Girls School"
      },
      "geometry": {
        "type": "Point",
        "coordinates": [
          72.9315059,
          33.9993807
        ]
      },
      "id": "node/296413046"
    },
    {
      "type": "Feature",
      "properties": {
        "@id": "node/296413104",
        "amenity": "school",
        "created_by": "Potlatch 0.10b",
        "name": "Elementary College"
      },
      "geometry": {
        "type": "Point",
        "coordinates": [
          72.9300559,
          33.9943381
        ]
      },
      "id": "node/296413104"
    },
    {
      "type": "Feature",
      "properties": {
        "@id": "node/296413617",
        "amenity": "school",
        "created_by": "Potlatch 0.10b",
        "name": "FEF College for Women, Haripur"
      },
      "geometry": {
        "type": "Point",
        "coordinates": [
          72.9308469,
          33.9933019
        ]
      },
      "id": "node/296413617"
    },
    {
      "type": "Feature",
      "properties": {
        "@id": "node/297159227",
        "amenity": "hospital",
        "description": "Alrasheed Hospital Haripur",
        "healthcare": "hospital",
        "name": "Alrasheed Hospital Haripur"
      },
      "geometry": {
        "type": "Point",
        "coordinates": [
          72.9296294,
          33.996244
        ]
      },
      "id": "node/297159227"
    },
    {
      "type": "Feature",
      "properties": {
        "@id": "node/297213052",
        "amenity": "hospital",
        "name": "Alghazi Hospital"
      },
      "geometry": {
        "type": "Point",
        "coordinates": [
          72.9321443,
          33.9968489
        ]
      },
      "id": "node/297213052"
    },
    {
      "type": "Feature",
      "properties": {
        "@id": "node/297213176",
        "amenity": "school",
        "created_by": "Potlatch 0.10b",
        "name": "Yateem Khana"
      },
      "geometry": {
        "type": "Point",
        "coordinates": [
          72.9324103,
          33.9933833
        ]
      },
      "id": "node/297213176"
    },
    {
      "type": "Feature",
      "properties": {
        "@id": "node/297233686",
        "amenity": "school",
        "created_by": "Potlatch 0.10b",
        "name": "Govt. High School Darwesh"
      },
      "geometry": {
        "type": "Point",
        "coordinates": [
          72.9100858,
          33.9903233
        ]
      },
      "id": "node/297233686"
    },
    {
      "type": "Feature",
      "properties": {
        "@id": "node/297235224",
        "amenity": "school",
        "created_by": "xybot",
        "name": "International Public School"
      },
      "geometry": {
        "type": "Point",
        "coordinates": [
          72.9110213,
          33.9874838
        ]
      },
      "id": "node/297235224"
    },
    {
      "type": "Feature",
      "properties": {
        "@id": "node/297235254",
        "amenity": "school",
        "created_by": "Potlatch 0.10b",
        "name": "Hazara Public School"
      },
      "geometry": {
        "type": "Point",
        "coordinates": [
          72.9166432,
          33.9853985
        ]
      },
      "id": "node/297235254"
    },
    {
      "type": "Feature",
      "properties": {
        "@id": "node/297469184",
        "amenity": "school",
        "created_by": "Potlatch 0.10b",
        "name": "Telecom Girl's School Haripur"
      },
      "geometry": {
        "type": "Point",
        "coordinates": [
          72.9234655,
          33.9679287
        ]
      },
      "id": "node/297469184"
    },
    {
      "type": "Feature",
      "properties": {
        "@id": "node/297470231",
        "amenity": "hospital",
        "name": "TIP Hospital"
      },
      "geometry": {
        "type": "Point",
        "coordinates": [
          72.9266669,
          33.9689679
        ]
      },
      "id": "node/297470231"
    },
    {
      "type": "Feature",
      "properties": {
        "@id": "node/297472052",
        "amenity": "school",
        "name": "Telecom Boys's Public School"
      },
      "geometry": {
        "type": "Point",
        "coordinates": [
          72.9291303,
          33.9756873
        ]
      },
      "id": "node/297472052"
    },
    {
      "type": "Feature",
      "properties": {
        "@id": "node/297476467",
        "amenity": "school",
        "created_by": "Potlatch 0.10b",
        "name": "Govt. Commerce College"
      },
      "geometry": {
        "type": "Point",
        "coordinates": [
          72.9005315,
          34.0026165
        ]
      },
      "id": "node/297476467"
    },
    {
      "type": "Feature",
      "properties": {
        "@id": "node/297476902",
        "amenity": "school",
        "created_by": "Potlatch 0.10b",
        "name": "Gov. Girl's High School Dheendah"
      },
      "geometry": {
        "type": "Point",
        "coordinates": [
          72.8866441,
          33.9979771
        ]
      },
      "id": "node/297476902"
    },
    {
      "type": "Feature",
      "properties": {
        "@id": "node/297486607",
        "amenity": "school",
        "created_by": "Potlatch 0.10f",
        "name": "Mohallah Koha",
        "place": "suburb"
      },
      "geometry": {
        "type": "Point",
        "coordinates": [
          72.9327449,
          34.00008
        ]
      },
      "id": "node/297486607"
    },
    {
      "type": "Feature",
      "properties": {
        "@id": "node/297648462",
        "addr:city": "اسلام آباد",
        "addr:city:ar": "إسلام آباد",
        "addr:city:en": "Islamabad",
        "addr:city:ks": "اِسلام آبادٖ",
        "addr:city:pnb": "اسلام آباد",
        "addr:city:ps": "اسلام آباد",
        "addr:city:sd": "اسلام آباد",
        "addr:city:ur": "اسلام آباد",
        "addr:street": "Service Road East G-7",
        "amenity": "hospital",
        "name": "Islamabad International َDental Hospital and College"
      },
      "geometry": {
        "type": "Point",
        "coordinates": [
          73.0794388,
          33.7054375
        ]
      },
      "id": "node/297648462"
    },
    {
      "type": "Feature",
      "properties": {
        "@id": "node/297683371",
        "addr:place": "کوٹ نجیب اللہ",
        "amenity": "school",
        "name": "GHS for Boys"
      },
      "geometry": {
        "type": "Point",
        "coordinates": [
          72.8576826,
          33.9328012
        ]
      },
      "id": "node/297683371"
    },
    {
      "type": "Feature",
      "properties": {
        "@id": "node/298958179",
        "name": "Shangrila Resort",
        "tourism": "hotel",
        "website": "https://shangrilaresorts.com.pk/"
      },
      "geometry": {
        "type": "Point",
        "coordinates": [
          75.45574,
          35.4275657
        ]
      },
      "id": "node/298958179"
    },
    {
      "type": "Feature",
      "properties": {
        "@id": "node/299014484",
        "addr:city": "Besham",
        "name": "PTDC Motel Baesham",
        "tourism": "hotel"
      },
      "geometry": {
        "type": "Point",
        "coordinates": [
          72.8615638,
          34.8997352
        ]
      },
      "id": "node/299014484"
    },
    {
      "type": "Feature",
      "properties": {
        "@id": "node/299014485",
        "name": "Besham Rana Lodge",
        "tourism": "hotel"
      },
      "geometry": {
        "type": "Point",
        "coordinates": [
          72.8628168,
          34.9069223
        ]
      },
      "id": "node/299014485"
    },
    {
      "type": "Feature",
      "properties": {
        "@id": "node/302217631",
        "name": "PTDC Hotel",
        "tourism": "hotel"
      },
      "geometry": {
        "type": "Point",
        "coordinates": [
          71.8618364,
          35.2320329
        ]
      },
      "id": "node/302217631"
    },
    {
      "type": "Feature",
      "properties": {
        "@id": "node/303064658",
        "addr:city": "Lahore",
        "addr:street": "Usmani Road",
        "amenity": "school",
        "name": "SKANS School of Accountancy ACCA Campus"
      },
      "geometry": {
        "type": "Point",
        "coordinates": [
          74.3127392,
          31.4951951
        ]
      },
      "id": "node/303064658"
    },
    {
      "type": "Feature",
      "properties": {
        "@id": "node/303276466",
        "amenity": "school",
        "name": "Beconhouse"
      },
      "geometry": {
        "type": "Point",
        "coordinates": [
          74.3602632,
          31.4793039
        ]
      },
      "id": "node/303276466"
    },
    {
      "type": "Feature",
      "properties": {
        "@id": "node/303945094",
        "amenity": "school",
        "created_by": "Potlatch 0.10d",
        "name": "Shofait Intl"
      },
      "geometry": {
        "type": "Point",
        "coordinates": [
          74.2791638,
          31.4743722
        ]
      },
      "id": "node/303945094"
    },
    {
      "type": "Feature",
      "properties": {
        "@id": "node/304504129",
        "amenity": "school",
        "name": "COMSAT University Lahore"
      },
      "geometry": {
        "type": "Point",
        "coordinates": [
          74.1984305,
          31.4005015
        ]
      },
      "id": "node/304504129"
    },
    {
      "type": "Feature",
      "properties": {
        "@id": "node/306544013",
        "amenity": "restaurant",
        "is_in": "Pir Sohawa",
        "name": "Isloo Grill, Pir Sohawa"
      },
      "geometry": {
        "type": "Point",
        "coordinates": [
          73.1103956,
          33.7843301
        ]
      },
      "id": "node/306544013"
    },
    {
      "type": "Feature",
      "properties": {
        "@id": "node/309505786",
        "amenity": "hospital",
        "created_by": "Potlatch 0.10f",
        "name": "Mother Care Maternity"
      },
      "geometry": {
        "type": "Point",
        "coordinates": [
          72.9419183,
          33.9959664
        ]
      },
      "id": "node/309505786"
    },
    {
      "type": "Feature",
      "properties": {
        "@id": "node/309598272",
        "amenity": "hospital",
        "created_by": "Potlatch 0.10f",
        "name": "Alfaisal Hospital"
      },
      "geometry": {
        "type": "Point",
        "coordinates": [
          72.927017,
          33.994919
        ]
      },
      "id": "node/309598272"
    },
    {
      "type": "Feature",
      "properties": {
        "@id": "node/310388840",
        "amenity": "school",
        "created_by": "Potlatch 0.10f",
        "name": "Govt. Primary School",
        "place": "village"
      },
      "geometry": {
        "type": "Point",
        "coordinates": [
          72.961984,
          33.906359
        ]
      },
      "id": "node/310388840"
    },
    {
      "type": "Feature",
      "properties": {
        "@id": "node/310388963",
        "amenity": "school",
        "created_by": "Potlatch 0.10f",
        "name": "Govt. High School",
        "place": "village"
      },
      "geometry": {
        "type": "Point",
        "coordinates": [
          72.9653571,
          33.906993
        ]
      },
      "id": "node/310388963"
    },
    {
      "type": "Feature",
      "properties": {
        "@id": "node/312719028",
        "addr:city": "اسلام آباد",
        "addr:city:ar": "إسلام آباد",
        "addr:city:en": "Islamabad",
        "addr:city:ks": "اِسلام آبادٖ",
        "addr:city:pnb": "اسلام آباد",
        "addr:city:ps": "اسلام آباد",
        "addr:city:sd": "اسلام آباد",
        "addr:city:ur": "اسلام آباد",
        "addr:street": "Rashid Minhas Boulevard",
        "amenity": "hospital",
        "emergency": "yes",
        "name": "PAF Hospital"
      },
      "geometry": {
        "type": "Point",
        "coordinates": [
          73.0170436,
          33.7156183
        ]
      },
      "id": "node/312719028"
    },
    {
      "type": "Feature",
      "properties": {
        "@id": "node/319135343",
        "amenity": "restaurant",
        "name": "Bari's Biryani House"
      },
      "geometry": {
        "type": "Point",
        "coordinates": [
          72.2801669,
          32.2872397
        ]
      },
      "id": "node/319135343"
    },
    {
      "type": "Feature",
      "properties": {
        "@id": "node/414646660",
        "amenity": "school",
        "name": "Message Grammar School"
      },
      "geometry": {
        "type": "Point",
        "coordinates": [
          74.181637,
          31.4111289
        ]
      },
      "id": "node/414646660"
    },
    {
      "type": "Feature",
      "properties": {
        "@id": "node/444356921",
        "amenity": "hospital",
        "name": "Nishtar Medical College"
      },
      "geometry": {
        "type": "Point",
        "coordinates": [
          71.4440615,
          30.2029481
        ]
      },
      "id": "node/444356921"
    },
    {
      "type": "Feature",
      "properties": {
        "@id": "node/444357811",
        "amenity": "hospital",
        "name": "University Clinic"
      },
      "geometry": {
        "type": "Point",
        "coordinates": [
          71.5027225,
          30.2691062
        ]
      },
      "id": "node/444357811"
    },
    {
      "type": "Feature",
      "properties": {
        "@id": "node/444597688",
        "amenity": "hospital",
        "name": "Aliabad, Hospital"
      },
      "geometry": {
        "type": "Point",
        "coordinates": [
          74.6144969,
          36.3094952
        ]
      },
      "id": "node/444597688"
    },
    {
      "type": "Feature",
      "properties": {
        "@id": "node/444599234",
        "amenity": "school",
        "name": "Aliabad Model Academy"
      },
      "geometry": {
        "type": "Point",
        "coordinates": [
          74.6205823,
          36.3042108
        ]
      },
      "id": "node/444599234"
    },
    {
      "type": "Feature",
      "properties": {
        "@id": "node/479737407",
        "addr:city": "Karachi",
        "addr:country": "PK",
        "addr:housenumber": "SMCHS Block B",
        "addr:place": "SMCHS Block B",
        "addr:province": "Sindh",
        "addr:street": "SMCHS",
        "addr:suburb": "PECHS",
        "amenity": "hospital",
        "healthcare": "hospital",
        "name": "Alvi Dental Hospital"
      },
      "geometry": {
        "type": "Point",
        "coordinates": [
          67.0544131,
          24.8563966
        ]
      },
      "id": "node/479737407"
    },
    {
      "type": "Feature",
      "properties": {
        "@id": "node/480667929",
        "addr:city": "Karachi",
        "addr:country": "PK",
        "addr:housenumber": "Block 3",
        "addr:place": "Clifton Block 3",
        "addr:province": "Sindh",
        "addr:street": "Clifton",
        "addr:suburb": "Clifton",
        "amenity": "school",
        "country": "PK",
        "name": "Links Primary School"
      },
      "geometry": {
        "type": "Point",
        "coordinates": [
          67.0306753,
          24.8088198
        ]
      },
      "id": "node/480667929"
    },
    {
      "type": "Feature",
      "properties": {
        "@id": "node/480667930",
        "addr:city": "Karachi",
        "addr:country": "PK",
        "addr:housenumber": "Block 3",
        "addr:place": "Clifton Block 3",
        "addr:province": "Sindh",
        "addr:street": "Clifton",
        "addr:suburb": "Clifton",
        "amenity": "school",
        "country": "PK",
        "name": "Links Pre School"
      },
      "geometry": {
        "type": "Point",
        "coordinates": [
          67.0288964,
          24.8079442
        ]
      },
      "id": "node/480667930"
    },
    {
      "type": "Feature",
      "properties": {
        "@id": "node/480667931",
        "addr:city": "Karachi",
        "addr:country": "PK",
        "addr:place": "Clifton Block 4",
        "addr:province": "Sindh",
        "addr:street": "33A Street",
        "addr:suburb": "Clifton",
        "amenity": "school",
        "country": "PK",
        "name": "Links Secondary School- Clifton 4"
      },
      "geometry": {
        "type": "Point",
        "coordinates": [
          67.0296412,
          24.8049404
        ]
      },
      "id": "node/480667931"
    },
    {
      "type": "Feature",
      "properties": {
        "@id": "node/526681507",
        "amenity": "hospital",
        "name": "PU Health Center"
      },
      "geometry": {
        "type": "Point",
        "coordinates": [
          74.3116217,
          31.502479
        ]
      },
      "id": "node/526681507"
    },
    {
      "type": "Feature",
      "properties": {
        "@id": "node/526690133",
        "amenity": "restaurant",
        "key": "Punjab University Lahore",
        "name": "Main Cafeteria"
      },
      "geometry": {
        "type": "Point",
        "coordinates": [
          74.3068676,
          31.4971045
        ]
      },
      "id": "node/526690133"
    },
    {
      "type": "Feature",
      "properties": {
        "@id": "node/526706371",
        "amenity": "hospital",
        "key": "Islamia University Bahawalpur",
        "name": "IUB Hospital"
      },
      "geometry": {
        "type": "Point",
        "coordinates": [
          71.7542285,
          29.3755291
        ]
      },
      "id": "node/526706371"
    },
    {
      "type": "Feature",
      "properties": {
        "@id": "node/533746262",
        "amenity": "restaurant",
        "name": "Gourmet Grill"
      },
      "geometry": {
        "type": "Point",
        "coordinates": [
          74.3785748,
          31.4747018
        ]
      },
      "id": "node/533746262"
    },
    {
      "type": "Feature",
      "properties": {
        "@id": "node/533746378",
        "amenity": "restaurant",
        "name": "Bundu Khan"
      },
      "geometry": {
        "type": "Point",
        "coordinates": [
          74.3792443,
          31.4735599
        ]
      },
      "id": "node/533746378"
    },
    {
      "type": "Feature",
      "properties": {
        "@id": "node/533746953",
        "amenity": "school"
      },
      "geometry": {
        "type": "Point",
        "coordinates": [
          74.3762553,
          31.476576
        ]
      },
      "id": "node/533746953"
    },
    {
      "type": "Feature",
      "properties": {
        "@id": "node/533746958",
        "amenity": "school"
      },
      "geometry": {
        "type": "Point",
        "coordinates": [
          74.374927,
          31.4759682
        ]
      },
      "id": "node/533746958"
    },
    {
      "type": "Feature",
      "properties": {
        "@id": "node/540757181",
        "amenity": "school",
        "name": "Junior Cadet School"
      },
      "geometry": {
        "type": "Point",
        "coordinates": [
          74.2950525,
          31.4295345
        ]
      },
      "id": "node/540757181"
    },
    {
      "type": "Feature",
      "properties": {
        "@id": "node/563684371",
        "addr:city": "لاہور",
        "amenity": "hospital",
        "emergency": "yes",
        "healthcare": "hospital",
        "name": "یونائیٹڈ کرسچن ہسپتال",
        "name:en": "United Christian Hospital",
        "name:es": "Hospital Cristiano Unido",
        "name:ur": "یونائیٹڈ کرسچن ہسپتال"
      },
      "geometry": {
        "type": "Point",
        "coordinates": [
          74.340491,
          31.5086817
        ]
      },
      "id": "node/563684371"
    },
    {
      "type": "Feature",
      "properties": {
        "@id": "node/571786778",
        "name": "Gilgit",
        "tourism": "hotel"
      },
      "geometry": {
        "type": "Point",
        "coordinates": [
          74.3692449,
          35.8993494
        ]
      },
      "id": "node/571786778"
    },
    {
      "type": "Feature",
      "properties": {
        "@id": "node/603101022",
        "amenity": "restaurant",
        "cuisine": "international",
        "name": "Dera Inn",
        "source": "local survey"
      },
      "geometry": {
        "type": "Point",
        "coordinates": [
          71.4940532,
          30.2706792
        ]
      },
      "id": "node/603101022"
    },
    {
      "type": "Feature",
      "properties": {
        "@id": "node/617962741",
        "amenity": "hospital",
        "name": "Hafiz Aslam Dental Clinic"
      },
      "geometry": {
        "type": "Point",
        "coordinates": [
          73.4201276,
          31.3363811
        ]
      },
      "id": "node/617962741"
    },
    {
      "type": "Feature",
      "properties": {
        "@id": "node/618587673",
        "amenity": "school",
        "name": "Govt. MC High School"
      },
      "geometry": {
        "type": "Point",
        "coordinates": [
          72.6846521,
          30.1624358
        ]
      },
      "id": "node/618587673"
    },
    {
      "type": "Feature",
      "properties": {
        "@id": "node/618587836",
        "amenity": "restaurant",
        "name": "Deewan-e-Khas"
      },
      "geometry": {
        "type": "Point",
        "coordinates": [
          72.6468008,
          30.1476299
        ]
      },
      "id": "node/618587836"
    },
    {
      "type": "Feature",
      "properties": {
        "@id": "node/652425201",
        "amenity": "school",
        "is_in": "F-11/2, Islamabad",
        "name": "International Islamic Grammer School"
      },
      "geometry": {
        "type": "Point",
        "coordinates": [
          72.9801959,
          33.6783486
        ]
      },
      "id": "node/652425201"
    },
    {
      "type": "Feature",
      "properties": {
        "@id": "node/660156180",
        "amenity": "school",
        "is_in": "F-6/2, Islamabad"
      },
      "geometry": {
        "type": "Point",
        "coordinates": [
          73.0655153,
          33.7286702
        ]
      },
      "id": "node/660156180"
    },
    {
      "type": "Feature",
      "properties": {
        "@id": "node/660156672",
        "amenity": "school",
        "is_in": "F-6/2, Islamabad"
      },
      "geometry": {
        "type": "Point",
        "coordinates": [
          73.0698508,
          33.7299194
        ]
      },
      "id": "node/660156672"
    },
    {
      "type": "Feature",
      "properties": {
        "@id": "node/660960200",
        "addr:city": "اسلام آباد",
        "addr:city:ar": "إسلام آباد",
        "addr:city:en": "Islamabad",
        "addr:city:ks": "اِسلام آبادٖ",
        "addr:city:pnb": "اسلام آباد",
        "addr:city:ps": "اسلام آباد",
        "addr:city:sd": "اسلام آباد",
        "addr:city:ur": "اسلام آباد",
        "addr:street": "School Road",
        "amenity": "restaurant",
        "cuisine": "regional",
        "name": "Islamabad Vintage Quisine"
      },
      "geometry": {
        "type": "Point",
        "coordinates": [
          73.0749265,
          33.7294496
        ]
      },
      "id": "node/660960200"
    },
    {
      "type": "Feature",
      "properties": {
        "@id": "node/660960870",
        "addr:city": "اسلام آباد",
        "addr:city:ar": "إسلام آباد",
        "addr:city:en": "Islamabad",
        "addr:city:ks": "اِسلام آبادٖ",
        "addr:city:pnb": "اسلام آباد",
        "addr:city:ps": "اسلام آباد",
        "addr:city:sd": "اسلام آباد",
        "addr:city:ur": "اسلام آباد",
        "addr:street": "Bhitai Road",
        "amenity": "restaurant",
        "name": "Kitchen Cusine Grill"
      },
      "geometry": {
        "type": "Point",
        "coordinates": [
          73.0617424,
          33.721965
        ]
      },
      "id": "node/660960870"
    },
    {
      "type": "Feature",
      "properties": {
        "@id": "node/660960871",
        "amenity": "restaurant",
        "is_in": "F-7/4, Islamabad",
        "name": "Zefra Restaurant"
      },
      "geometry": {
        "type": "Point",
        "coordinates": [
          73.0621813,
          33.7217479
        ]
      },
      "id": "node/660960871"
    },
    {
      "type": "Feature",
      "properties": {
        "@id": "node/662431114",
        "amenity": "school"
      },
      "geometry": {
        "type": "Point",
        "coordinates": [
          73.1995233,
          33.5741251
        ]
      },
      "id": "node/662431114"
    },
    {
      "type": "Feature",
      "properties": {
        "@id": "node/674141730",
        "addr:city": "Lahore",
        "addr:street": "Multan Road",
        "amenity": "hospital",
        "name": "Social Security Hospital",
        "wikidata": "Q7260296"
      },
      "geometry": {
        "type": "Point",
        "coordinates": [
          74.263181,
          31.4967802
        ]
      },
      "id": "node/674141730"
    },
    {
      "type": "Feature",
      "properties": {
        "@id": "node/734882750",
        "internet_access": "wlan",
        "name": "Bloomstar Hotel",
        "name:en": "Bloomstar 20$ / 8$ camping",
        "tourism": "hotel"
      },
      "geometry": {
        "type": "Point",
        "coordinates": [
          67.0049321,
          30.1893525
        ]
      },
      "id": "node/734882750"
    },
    {
      "type": "Feature",
      "properties": {
        "@id": "node/734889373",
        "tourism": "hotel"
      },
      "geometry": {
        "type": "Point",
        "coordinates": [
          67.0036764,
          30.1892996
        ]
      },
      "id": "node/734889373"
    },
    {
      "type": "Feature",
      "properties": {
        "@id": "node/740503747",
        "tourism": "hotel"
      },
      "geometry": {
        "type": "Point",
        "coordinates": [
          69.4454633,
          31.3456104
        ]
      },
      "id": "node/740503747"
    },
    {
      "type": "Feature",
      "properties": {
        "@id": "node/742042809",
        "addr:city": "Bahawalpur",
        "addr:street": "Model Town Rd",
        "name": "Eastern Pearl Motel",
        "tourism": "hotel"
      },
      "geometry": {
        "type": "Point",
        "coordinates": [
          71.665641,
          29.4059662
        ]
      },
      "id": "node/742042809"
    },
    {
      "type": "Feature",
      "properties": {
        "@id": "node/742046790",
        "description": "Expensive, but comfy with AC. Probably THE place to stay when it's 47 Celsius and you're sick.",
        "name": "Midway Hotel",
        "tourism": "hotel"
      },
      "geometry": {
        "type": "Point",
        "coordinates": [
          70.9278382,
          31.8243732
        ]
      },
      "id": "node/742046790"
    },
    {
      "type": "Feature",
      "properties": {
        "@id": "node/742145824",
        "name": "Rose Hotel",
        "tourism": "hotel"
      },
      "geometry": {
        "type": "Point",
        "coordinates": [
          71.563989,
          34.0085611
        ]
      },
      "id": "node/742145824"
    },
    {
      "type": "Feature",
      "properties": {
        "@id": "node/742146088",
        "name": "Hidayat Hotel",
        "tourism": "hotel"
      },
      "geometry": {
        "type": "Point",
        "coordinates": [
          71.5734886,
          34.0160404
        ]
      },
      "id": "node/742146088"
    },
    {
      "type": "Feature",
      "properties": {
        "@id": "node/746029578",
        "name": "Tulip Hotel",
        "tourism": "hotel"
      },
      "geometry": {
        "type": "Point",
        "coordinates": [
          73.7308432,
          32.9072645
        ]
      },
      "id": "node/746029578"
    },
    {
      "type": "Feature",
      "properties": {
        "@id": "node/746250537",
        "amenity": "restaurant",
        "name": "PTDC Restaurant"
      },
      "geometry": {
        "type": "Point",
        "coordinates": [
          72.005344,
          34.6321315
        ]
      },
      "id": "node/746250537"
    },
    {
      "type": "Feature",
      "properties": {
        "@id": "node/746256633",
        "tourism": "hotel"
      },
      "geometry": {
        "type": "Point",
        "coordinates": [
          74.101889,
          35.4310918
        ]
      },
      "id": "node/746256633"
    },
    {
      "type": "Feature",
      "properties": {
        "@id": "node/746261177",
        "name": "Satpara Lake View Hotel",
        "tourism": "hotel"
      },
      "geometry": {
        "type": "Point",
        "coordinates": [
          75.6366897,
          35.2385659
        ]
      },
      "id": "node/746261177"
    },
    {
      "type": "Feature",
      "properties": {
        "@id": "node/746264678",
        "addr:city": "Istak",
        "addr:housenumber": "PTDC Motel Istak near Istak Nala",
        "addr:street": "Gilgit - Skardu Highway",
        "name": "PTDC Motel Istak",
        "tourism": "hotel"
      },
      "geometry": {
        "type": "Point",
        "coordinates": [
          75.0246402,
          35.6320626
        ]
      },
      "id": "node/746264678"
    },
    {
      "type": "Feature",
      "properties": {
        "@id": "node/746329524",
        "addr:city": "Sost",
        "name": "PTDC Motel",
        "tourism": "hotel"
      },
      "geometry": {
        "type": "Point",
        "coordinates": [
          74.8197403,
          36.6913948
        ]
      },
      "id": "node/746329524"
    },
    {
      "type": "Feature",
      "properties": {
        "@id": "node/747664433",
        "name": "Dir Continental Hotel",
        "tourism": "hotel"
      },
      "geometry": {
        "type": "Point",
        "coordinates": [
          71.8400197,
          34.8207046
        ]
      },
      "id": "node/747664433"
    },
    {
      "type": "Feature",
      "properties": {
        "@id": "node/747675849",
        "addr:city": "مانسہرہ",
        "tourism": "hotel"
      },
      "geometry": {
        "type": "Point",
        "coordinates": [
          73.1958034,
          34.3337207
        ]
      },
      "id": "node/747675849"
    },
    {
      "type": "Feature",
      "properties": {
        "@id": "node/800039814",
        "amenity": "restaurant",
        "name": "Luna Caprese"
      },
      "geometry": {
        "type": "Point",
        "coordinates": [
          73.075362,
          33.7303805
        ]
      },
      "id": "node/800039814"
    },
    {
      "type": "Feature",
      "properties": {
        "@id": "node/846545733",
        "amenity": "hospital",
        "healthcare": "hospital",
        "healthcare:speciality": "family_medicine",
        "name": "Combined Military Hospital Family Section"
      },
      "geometry": {
        "type": "Point",
        "coordinates": [
          70.919967,
          31.8271248
        ]
      },
      "id": "node/846545733"
    },
    {
      "type": "Feature",
      "properties": {
        "@id": "node/846545734",
        "amenity": "hospital",
        "name": "Mehmood Eye Hospital"
      },
      "geometry": {
        "type": "Point",
        "coordinates": [
          70.91926,
          31.81402
        ]
      },
      "id": "node/846545734"
    },
    {
      "type": "Feature",
      "properties": {
        "@id": "node/846545735",
        "amenity": "hospital",
        "healthcare": "hospital",
        "name": "Mission Hospital"
      },
      "geometry": {
        "type": "Point",
        "coordinates": [
          70.897881,
          31.8228187
        ]
      },
      "id": "node/846545735"
    },
    {
      "type": "Feature",
      "properties": {
        "@id": "node/846545736",
        "amenity": "hospital",
        "healthcare": "hospital",
        "name": "Combined Military Hospital"
      },
      "geometry": {
        "type": "Point",
        "coordinates": [
          70.92119,
          31.82654
        ]
      },
      "id": "node/846545736"
    },
    {
      "type": "Feature",
      "properties": {
        "@id": "node/846552680",
        "amenity": "school",
        "name": "Boys High School #4"
      },
      "geometry": {
        "type": "Point",
        "coordinates": [
          70.89623,
          31.82827
        ]
      },
      "id": "node/846552680"
    },
    {
      "type": "Feature",
      "properties": {
        "@id": "node/846552692",
        "amenity": "school",
        "name": "Boys High School"
      },
      "geometry": {
        "type": "Point",
        "coordinates": [
          70.9114642,
          31.8481449
        ]
      },
      "id": "node/846552692"
    },
    {
      "type": "Feature",
      "properties": {
        "@id": "node/854341089",
        "amenity": "hospital",
        "emergency": "yes",
        "name": "CMH Peshawar - Combined Military Hospital",
        "source": "CIA map"
      },
      "geometry": {
        "type": "Point",
        "coordinates": [
          71.5427023,
          34.0034083
        ]
      },
      "id": "node/854341089"
    },
    {
      "type": "Feature",
      "properties": {
        "@id": "node/880527503",
        "tourism": "hotel"
      },
      "geometry": {
        "type": "Point",
        "coordinates": [
          74.6153466,
          36.3078075
        ]
      },
      "id": "node/880527503"
    },
    {
      "type": "Feature",
      "properties": {
        "@id": "node/880532051",
        "amenity": "hospital",
        "name": "Aga Khan Health Center"
      },
      "geometry": {
        "type": "Point",
        "coordinates": [
          74.6125464,
          36.3063982
        ]
      },
      "id": "node/880532051"
    },
    {
      "type": "Feature",
      "properties": {
        "@id": "node/880535054",
        "amenity": "school",
        "name": "Aliabad Boy College"
      },
      "geometry": {
        "type": "Point",
        "coordinates": [
          74.6174709,
          36.3118277
        ]
      },
      "id": "node/880535054"
    },
    {
      "type": "Feature",
      "properties": {
        "@id": "node/885748362",
        "amenity": "restaurant",
        "name": "Savour Food (\"Pulao Kabab\")"
      },
      "geometry": {
        "type": "Point",
        "coordinates": [
          73.0623827,
          33.6105658
        ]
      },
      "id": "node/885748362"
    },
    {
      "type": "Feature",
      "properties": {
        "@id": "node/895554389",
        "amenity": "hospital",
        "healthcare": "hospital"
      },
      "geometry": {
        "type": "Point",
        "coordinates": [
          72.4137005,
          32.9387131
        ]
      },
      "id": "node/895554389"
    },
    {
      "type": "Feature",
      "properties": {
        "@id": "node/914219800",
        "amenity": "school"
      },
      "geometry": {
        "type": "Point",
        "coordinates": [
          74.3373642,
          31.5129129
        ]
      },
      "id": "node/914219800"
    },
    {
      "type": "Feature",
      "properties": {
        "@id": "node/935843937",
        "amenity": "school"
      },
      "geometry": {
        "type": "Point",
        "coordinates": [
          74.2597746,
          31.5032098
        ]
      },
      "id": "node/935843937"
    },
    {
      "type": "Feature",
      "properties": {
        "@id": "node/945059016",
        "amenity": "school",
        "name": "F.G School No. 8"
      },
      "geometry": {
        "type": "Point",
        "coordinates": [
          72.7209989,
          33.7840354
        ]
      },
      "id": "node/945059016"
    },
    {
      "type": "Feature",
      "properties": {
        "@id": "node/946538114",
        "amenity": "school",
        "name": "F.G High School No.6"
      },
      "geometry": {
        "type": "Point",
        "coordinates": [
          72.7251806,
          33.7817052
        ]
      },
      "id": "node/946538114"
    },
    {
      "type": "Feature",
      "properties": {
        "@id": "node/947867450",
        "amenity": "school",
        "name": "F.G Degree College For Men"
      },
      "geometry": {
        "type": "Point",
        "coordinates": [
          72.7496488,
          33.7747317
        ]
      },
      "id": "node/947867450"
    },
    {
      "type": "Feature",
      "properties": {
        "@id": "node/955183623",
        "addr:city": "Sukkur",
        "addr:street": "Workshop Road",
        "amenity": "hospital",
        "healthcare": "hospital",
        "name": "HIRA hospital"
      },
      "geometry": {
        "type": "Point",
        "coordinates": [
          68.8554361,
          27.6912135
        ]
      },
      "id": "node/955183623"
    },
    {
      "type": "Feature",
      "properties": {
        "@id": "node/955221058",
        "amenity": "school",
        "name": "Masjid School"
      },
      "geometry": {
        "type": "Point",
        "coordinates": [
          68.8579477,
          27.7049487
        ]
      },
      "id": "node/955221058"
    },
    {
      "type": "Feature",
      "properties": {
        "@id": "node/955236718",
        "addr:city": "Sukkur",
        "addr:street": "Walis Road",
        "amenity": "restaurant",
        "name": "Kiran Bakers & Genral Store"
      },
      "geometry": {
        "type": "Point",
        "coordinates": [
          68.8711833,
          27.6945969
        ]
      },
      "id": "node/955236718"
    },
    {
      "type": "Feature",
      "properties": {
        "@id": "node/955237137",
        "addr:city": "Sukkur",
        "addr:street": "Walis Road",
        "amenity": "restaurant",
        "name": "New Alam Gouste"
      },
      "geometry": {
        "type": "Point",
        "coordinates": [
          68.8706334,
          27.6949697
        ]
      },
      "id": "node/955237137"
    },
    {
      "type": "Feature",
      "properties": {
        "@id": "node/965808597",
        "amenity": "school",
        "name": "AliGarh School"
      },
      "geometry": {
        "type": "Point",
        "coordinates": [
          71.4736966,
          30.2207254
        ]
      },
      "id": "node/965808597"
    },
    {
      "type": "Feature",
      "properties": {
        "@id": "node/977852301",
        "addr:city": "اسلام آباد",
        "addr:city:ar": "إسلام آباد",
        "addr:city:en": "Islamabad",
        "addr:city:ks": "اِسلام آبادٖ",
        "addr:city:pnb": "اسلام آباد",
        "addr:city:ps": "اسلام آباد",
        "addr:city:sd": "اسلام آباد",
        "addr:city:ur": "اسلام آباد",
        "addr:street": "F 7 Markaz",
        "email": "info@hotelhillview.net",
        "fax": "+92-51-2608520",
        "internet_access": "yes",
        "name": "Hill View Hotel",
        "phone": "+92-51-8319000",
        "stars": "2",
        "tourism": "hotel",
        "website": "https://hotelhillview.net/"
      },
      "geometry": {
        "type": "Point",
        "coordinates": [
          73.0564888,
          33.7210694
        ]
      },
      "id": "node/977852301"
    },
    {
      "type": "Feature",
      "properties": {
        "@id": "node/977855824",
        "addr:city": "اسلام آباد",
        "addr:city:ar": "إسلام آباد",
        "addr:city:en": "Islamabad",
        "addr:city:ks": "اِسلام آبادٖ",
        "addr:city:pnb": "اسلام آباد",
        "addr:city:ps": "اسلام آباد",
        "addr:city:sd": "اسلام آباد",
        "addr:city:ur": "اسلام آباد",
        "amenity": "restaurant",
        "brand": "پیزا ہٹ",
        "brand:ar": "بيتزا هت",
        "brand:en": "Pizza Hut",
        "brand:fa": "پیتزا هات",
        "brand:pnb": "پزا ہٹ",
        "brand:ur": "پیزا ہٹ",
        "brand:wikidata": "Q191615",
        "brand:wikipedia": "ur:پیزا ہٹ",
        "brand:wikipedia:ar": "بيتزا هت",
        "brand:wikipedia:fa": "پیتزا هات",
        "brand:wikipedia:pnb": "پزا ہٹ",
        "brand:wikipedia:ur": "پیزا ہٹ",
        "name": "پیزا ہٹ",
        "name:ar": "بيتزا هت",
        "name:en": "Pizza Hut",
        "name:fa": "پیتزا هات",
        "name:pnb": "پزا ہٹ",
        "name:ur": "پیزا ہٹ"
      },
      "geometry": {
        "type": "Point",
        "coordinates": [
          73.0587849,
          33.7221222
        ]
      },
      "id": "node/977855824"
    },
    {
      "type": "Feature",
      "properties": {
        "@id": "node/1012197611",
        "amenity": "school",
        "name": "The Educators"
      },
      "geometry": {
        "type": "Point",
        "coordinates": [
          73.3925599,
          31.3218187
        ]
      },
      "id": "node/1012197611"
    },
    {
      "type": "Feature",
      "properties": {
        "@id": "node/1029599217",
        "amenity": "school",
        "name": "Punjab International Public School"
      },
      "geometry": {
        "type": "Point",
        "coordinates": [
          72.6515332,
          31.5641492
        ]
      },
      "id": "node/1029599217"
    },
    {
      "type": "Feature",
      "properties": {
        "@id": "node/1042607910",
        "name": "Hotel Avanti",
        "stars": "2",
        "tourism": "hotel"
      },
      "geometry": {
        "type": "Point",
        "coordinates": [
          73.0522799,
          33.5980169
        ]
      },
      "id": "node/1042607910"
    },
    {
      "type": "Feature",
      "properties": {
        "@id": "node/1081224046",
        "addr:city": "Skardu",
        "addr:housename": "Hotel Mashabrum",
        "addr:postcode": "Baltistan",
        "addr:street": "College Road",
        "email": "info@hotelmashabrum.com",
        "fax": "+ 92 05815 50397",
        "name": "Hotel Mashabrum",
        "phone": "+ 92 05815 450395; + 92 05815 450396",
        "tourism": "hotel",
        "website": "http://www.hotelmashabrum.com/introduction.html"
      },
      "geometry": {
        "type": "Point",
        "coordinates": [
          75.6235123,
          35.3024688
        ]
      },
      "id": "node/1081224046"
    },
    {
      "type": "Feature",
      "properties": {
        "@id": "node/1081224051",
        "name": "Khyber Lodge",
        "tourism": "hotel"
      },
      "geometry": {
        "type": "Point",
        "coordinates": [
          73.2031251,
          35.357347
        ]
      },
      "id": "node/1081224051"
    },
    {
      "type": "Feature",
      "properties": {
        "@id": "node/1081513950",
        "addr:city": "حیدرآباد",
        "addr:city:en": "Hyderabad",
        "addr:city:fr": "Hyderâbâd",
        "addr:city:pa": "ਹੈਦਰਾਬਾਦ",
        "addr:city:ur": "حیدرآباد",
        "addr:street": "NAWAB MUZZAFAR ROAD;UNIT 7 MAIN ROAD",
        "amenity": "school",
        "name": "APWA School"
      },
      "geometry": {
        "type": "Point",
        "coordinates": [
          68.3620315,
          25.366639
        ]
      },
      "id": "node/1081513950"
    },
    {
      "type": "Feature",
      "properties": {
        "@id": "node/1088992109",
        "amenity": "hospital",
        "name": "DOCTORS PLAZA"
      },
      "geometry": {
        "type": "Point",
        "coordinates": [
          68.356747,
          25.3711979
        ]
      },
      "id": "node/1088992109"
    },
    {
      "type": "Feature",
      "properties": {
        "@id": "node/1088992149",
        "addr:city": "حیدرآباد",
        "addr:city:en": "Hyderabad",
        "addr:city:fr": "Hyderâbâd",
        "addr:city:pa": "ਹੈਦਰਾਬਾਦ",
        "addr:city:ur": "حیدرآباد",
        "addr:street": "NAWAB MUZZAFAR ROAD;UNIT 7 MAIN ROAD",
        "amenity": "restaurant"
      },
      "geometry": {
        "type": "Point",
        "coordinates": [
          68.3579372,
          25.3691494
        ]
      },
      "id": "node/1088992149"
    },
    {
      "type": "Feature",
      "properties": {
        "@id": "node/1088992167",
        "addr:city": "حیدرآباد",
        "addr:city:en": "Hyderabad",
        "addr:city:fr": "Hyderâbâd",
        "addr:city:pa": "ਹੈਦਰਾਬਾਦ",
        "addr:city:ur": "حیدرآباد",
        "addr:street": "NAWAB MUZZAFAR ROAD;UNIT 7 MAIN ROAD",
        "amenity": "restaurant"
      },
      "geometry": {
        "type": "Point",
        "coordinates": [
          68.3580989,
          25.3693315
        ]
      },
      "id": "node/1088992167"
    },
    {
      "type": "Feature",
      "properties": {
        "@id": "node/1088992170",
        "addr:city": "حیدرآباد",
        "addr:city:en": "Hyderabad",
        "addr:city:fr": "Hyderâbâd",
        "addr:city:pa": "ਹੈਦਰਾਬਾਦ",
        "addr:city:ur": "حیدرآباد",
        "addr:street": "NAWAB MUZZAFAR ROAD;UNIT 7 MAIN ROAD",
        "amenity": "restaurant",
        "name": "Balochistan Sajji"
      },
      "geometry": {
        "type": "Point",
        "coordinates": [
          68.3556178,
          25.3738275
        ]
      },
      "id": "node/1088992170"
    },
    {
      "type": "Feature",
      "properties": {
        "@id": "node/1088992175",
        "amenity": "restaurant"
      },
      "geometry": {
        "type": "Point",
        "coordinates": [
          68.3581905,
          25.3693942
        ]
      },
      "id": "node/1088992175"
    },
    {
      "type": "Feature",
      "properties": {
        "@id": "node/1089595055",
        "addr:city": "اسلام آباد",
        "addr:city:ar": "إسلام آباد",
        "addr:city:en": "Islamabad",
        "addr:city:ks": "اِسلام آبادٖ",
        "addr:city:pnb": "اسلام آباد",
        "addr:city:ps": "اسلام آباد",
        "addr:city:sd": "اسلام آباد",
        "addr:city:ur": "اسلام آباد",
        "addr:street": "Street 12",
        "amenity": "restaurant",
        "name": "Canadian Club",
        "name:es": "Club Canadiense",
        "name:fr": "Club Canadien"
      },
      "geometry": {
        "type": "Point",
        "coordinates": [
          73.1123473,
          33.7209943
        ]
      },
      "id": "node/1089595055"
    },
    {
      "type": "Feature",
      "properties": {
        "@id": "node/1092236787",
        "addr:city": "حیدرآباد",
        "addr:city:en": "Hyderabad",
        "addr:city:fr": "Hyderâbâd",
        "addr:city:pa": "ਹੈਦਰਾਬਾਦ",
        "addr:city:ur": "حیدرآباد",
        "amenity": "restaurant",
        "brand": "پیزا ہٹ",
        "brand:ar": "بيتزا هت",
        "brand:fa": "پیتزا هات",
        "brand:pnb": "پزا ہٹ",
        "brand:ur": "پیزا ہٹ",
        "brand:wikidata": "Q191615",
        "brand:wikipedia": "ur:پیزا ہٹ",
        "brand:wikipedia:ar": "بيتزا هت",
        "brand:wikipedia:fa": "پیتزا هات",
        "brand:wikipedia:pnb": "پزا ہٹ",
        "brand:wikipedia:ur": "پیزا ہٹ",
        "name": "پیزا ہٹ",
        "name:ar": "بيتزا هت",
        "name:en": "Pizza Hut",
        "name:fa": "پیتزا هات",
        "name:pnb": "پزا ہٹ",
        "name:ur": "پیزا ہٹ"
      },
      "geometry": {
        "type": "Point",
        "coordinates": [
          68.3372349,
          25.3802388
        ]
      },
      "id": "node/1092236787"
    },
    {
      "type": "Feature",
      "properties": {
        "@id": "node/1092236836",
        "addr:city": "حیدرآباد",
        "addr:city:en": "Hyderabad",
        "addr:city:fr": "Hyderâbâd",
        "addr:city:pa": "ਹੈਦਰਾਬਾਦ",
        "addr:city:ur": "حیدرآباد",
        "addr:street": "SHAHBAZ FLYOVER",
        "amenity": "restaurant"
      },
      "geometry": {
        "type": "Point",
        "coordinates": [
          68.3470446,
          25.3838364
        ]
      },
      "id": "node/1092236836"
    },
    {
      "type": "Feature",
      "properties": {
        "@id": "node/1093392155",
        "addr:city": "حیدرآباد",
        "addr:city:en": "Hyderabad",
        "addr:city:fr": "Hyderâbâd",
        "addr:city:pa": "ਹੈਦਰਾਬਾਦ",
        "addr:city:ur": "حیدرآباد",
        "addr:street": "Haji Ehsan Ali Road",
        "amenity": "hospital",
        "healthcare": "hospital",
        "name": "Memon Hospital"
      },
      "geometry": {
        "type": "Point",
        "coordinates": [
          68.3765575,
          25.3954647
        ]
      },
      "id": "node/1093392155"
    },
    {
      "type": "Feature",
      "properties": {
        "@id": "node/1096053565",
        "addr:city": "حیدرآباد",
        "addr:city:en": "Hyderabad",
        "addr:city:fr": "Hyderâbâd",
        "addr:city:pa": "ਹੈਦਰਾਬਾਦ",
        "addr:city:ur": "حیدرآباد",
        "addr:street": "Palh Road",
        "amenity": "school",
        "name": "Comprehensive School"
      },
      "geometry": {
        "type": "Point",
        "coordinates": [
          68.3539432,
          25.3561161
        ]
      },
      "id": "node/1096053565"
    },
    {
      "type": "Feature",
      "properties": {
        "@id": "node/1096136959",
        "addr:city": "حیدرآباد",
        "addr:city:en": "Hyderabad",
        "addr:city:fr": "Hyderâbâd",
        "addr:city:pa": "ਹੈਦਰਾਬਾਦ",
        "addr:city:ur": "حیدرآباد",
        "addr:street": "unit no.2 main road",
        "amenity": "hospital",
        "healthcare": "hospital",
        "healthcare:speciality": "cardiology",
        "name": "Red Crescent Institute of Cardiology"
      },
      "geometry": {
        "type": "Point",
        "coordinates": [
          68.3479493,
          25.3725749
        ]
      },
      "id": "node/1096136959"
    },
    {
      "type": "Feature",
      "properties": {
        "@id": "node/1096946009",
        "amenity": "restaurant",
        "name": "small hotel"
      },
      "geometry": {
        "type": "Point",
        "coordinates": [
          68.3580743,
          25.3581904
        ]
      },
      "id": "node/1096946009"
    },
    {
      "type": "Feature",
      "properties": {
        "@id": "node/1097708913",
        "addr:city": "Kotri",
        "addr:street": "Liaqat Road",
        "amenity": "school"
      },
      "geometry": {
        "type": "Point",
        "coordinates": [
          68.3141341,
          25.3659702
        ]
      },
      "id": "node/1097708913"
    },
    {
      "type": "Feature",
      "properties": {
        "@id": "node/1097711073",
        "amenity": "school"
      },
      "geometry": {
        "type": "Point",
        "coordinates": [
          68.3171168,
          25.3627532
        ]
      },
      "id": "node/1097711073"
    },
    {
      "type": "Feature",
      "properties": {
        "@id": "node/1097712533",
        "addr:city": "Karachi",
        "addr:street": "Liaqat Road",
        "amenity": "school"
      },
      "geometry": {
        "type": "Point",
        "coordinates": [
          68.3154492,
          25.3629894
        ]
      },
      "id": "node/1097712533"
    },
    {
      "type": "Feature",
      "properties": {
        "@id": "node/1099280810",
        "amenity": "school",
        "name": "training centre"
      },
      "geometry": {
        "type": "Point",
        "coordinates": [
          68.3579833,
          25.3281519
        ]
      },
      "id": "node/1099280810"
    },
    {
      "type": "Feature",
      "properties": {
        "@id": "node/1099415531",
        "addr:city": "حیدرآباد",
        "addr:city:en": "Hyderabad",
        "addr:city:fr": "Hyderâbâd",
        "addr:city:pa": "ਹੈਦਰਾਬਾਦ",
        "addr:city:ur": "حیدرآباد",
        "addr:street": "SHAHBAZ FLYOVER",
        "amenity": "restaurant"
      },
      "geometry": {
        "type": "Point",
        "coordinates": [
          68.3452691,
          25.3831921
        ]
      },
      "id": "node/1099415531"
    },
    {
      "type": "Feature",
      "properties": {
        "@id": "node/1099449484",
        "addr:city": "حیدرآباد",
        "addr:city:en": "Hyderabad",
        "addr:city:fr": "Hyderâbâd",
        "addr:city:pa": "ਹੈਦਰਾਬਾਦ",
        "addr:city:ur": "حیدرآباد",
        "addr:street": "BRIDGE",
        "amenity": "hospital"
      },
      "geometry": {
        "type": "Point",
        "coordinates": [
          68.3554138,
          25.3740851
        ]
      },
      "id": "node/1099449484"
    },
    {
      "type": "Feature",
      "properties": {
        "@id": "node/1101278044",
        "amenity": "hospital"
      },
      "geometry": {
        "type": "Point",
        "coordinates": [
          68.3629405,
          25.3922638
        ]
      },
      "id": "node/1101278044"
    },
    {
      "type": "Feature",
      "properties": {
        "@id": "node/1101279762",
        "addr:city": "حیدرآباد",
        "addr:city:en": "Hyderabad",
        "addr:city:fr": "Hyderâbâd",
        "addr:city:pa": "ਹੈਦਰਾਬਾਦ",
        "addr:city:ur": "حیدرآباد",
        "addr:street": "Chandni Cinema Road",
        "amenity": "restaurant",
        "name": "Hotel Faran"
      },
      "geometry": {
        "type": "Point",
        "coordinates": [
          68.3642387,
          25.391091
        ]
      },
      "id": "node/1101279762"
    },
    {
      "type": "Feature",
      "properties": {
        "@id": "node/1101743519",
        "amenity": "school"
      },
      "geometry": {
        "type": "Point",
        "coordinates": [
          68.3654188,
          25.3881445
        ]
      },
      "id": "node/1101743519"
    },
    {
      "type": "Feature",
      "properties": {
        "@id": "node/1102236416",
        "addr:city": "حیدرآباد",
        "addr:city:en": "Hyderabad",
        "addr:city:fr": "Hyderâbâd",
        "addr:city:pa": "ਹੈਦਰਾਬਾਦ",
        "addr:city:ur": "حیدرآباد",
        "addr:street": "Unit No 6",
        "amenity": "hospital",
        "name": "Red Crescent General Hospital Hilal E Ahmer"
      },
      "geometry": {
        "type": "Point",
        "coordinates": [
          68.3523961,
          25.3682693
        ]
      },
      "id": "node/1102236416"
    },
    {
      "type": "Feature",
      "properties": {
        "@id": "node/1104452109",
        "amenity": "restaurant"
      },
      "geometry": {
        "type": "Point",
        "coordinates": [
          68.2724679,
          25.4340413
        ]
      },
      "id": "node/1104452109"
    },
    {
      "type": "Feature",
      "properties": {
        "@id": "node/1106384012",
        "amenity": "restaurant",
        "name": "cafe lazeez"
      },
      "geometry": {
        "type": "Point",
        "coordinates": [
          73.0547032,
          33.7188394
        ]
      },
      "id": "node/1106384012"
    },
    {
      "type": "Feature",
      "properties": {
        "@id": "node/1107332782",
        "amenity": "hospital"
      },
      "geometry": {
        "type": "Point",
        "coordinates": [
          68.3627674,
          25.3343365
        ]
      },
      "id": "node/1107332782"
    },
    {
      "type": "Feature",
      "properties": {
        "@id": "node/1107334235",
        "amenity": "school"
      },
      "geometry": {
        "type": "Point",
        "coordinates": [
          68.3620593,
          25.3171328
        ]
      },
      "id": "node/1107334235"
    },
    {
      "type": "Feature",
      "properties": {
        "@id": "node/1118684521",
        "addr:city": "Karachi",
        "addr:country": "PK",
        "addr:housenumber": "Block 2",
        "addr:place": "PECHS Block 2",
        "addr:postcode": "75400",
        "addr:province": "Sindh",
        "addr:street": "PECHS",
        "addr:suburb": "PECHS",
        "amenity": "school",
        "name": "Tabani School of Accountancy",
        "wikidata": "Q16466799",
        "wikipedia": "en:Tabani's School of Accountancy"
      },
      "geometry": {
        "type": "Point",
        "coordinates": [
          67.0586436,
          24.8632665
        ]
      },
      "id": "node/1118684521"
    },
    {
      "type": "Feature",
      "properties": {
        "@id": "node/1119711731",
        "amenity": "school"
      },
      "geometry": {
        "type": "Point",
        "coordinates": [
          68.3624726,
          25.4156738
        ]
      },
      "id": "node/1119711731"
    },
    {
      "type": "Feature",
      "properties": {
        "@id": "node/1119754101",
        "addr:city": "حیدرآباد",
        "addr:city:en": "Hyderabad",
        "addr:city:fr": "Hyderâbâd",
        "addr:city:pa": "ਹੈਦਰਾਬਾਦ",
        "addr:city:ur": "حیدرآباد",
        "addr:street": "Station Road",
        "amenity": "hospital",
        "healthcare": "hospital",
        "name": "Homeo Pathic Hospital"
      },
      "geometry": {
        "type": "Point",
        "coordinates": [
          68.375948,
          25.3882
        ]
      },
      "id": "node/1119754101"
    },
    {
      "type": "Feature",
      "properties": {
        "@id": "node/1145891578",
        "amenity": "restaurant",
        "name": "Lamis Restaurant"
      },
      "geometry": {
        "type": "Point",
        "coordinates": [
          70.3126283,
          28.4219327
        ]
      },
      "id": "node/1145891578"
    },
    {
      "type": "Feature",
      "properties": {
        "@id": "node/1145891633",
        "name": "Lamis Hotel",
        "tourism": "hotel",
        "wpt_description": "Lamis Hotel",
        "wpt_symbol": "Lodging"
      },
      "geometry": {
        "type": "Point",
        "coordinates": [
          70.3123923,
          28.4219233
        ]
      },
      "id": "node/1145891633"
    },
    {
      "type": "Feature",
      "properties": {
        "@id": "node/1146993017",
        "amenity": "school",
        "name": "Lacas"
      },
      "geometry": {
        "type": "Point",
        "coordinates": [
          74.2814124,
          31.4713939
        ]
      },
      "id": "node/1146993017"
    },
    {
      "type": "Feature",
      "properties": {
        "@id": "node/1147219109",
        "addr:city": "Karachi",
        "addr:housenumber": "Lalazar",
        "addr:province": "Sindh",
        "addr:street": "Beach Hotel Road",
        "name": "Avari Beach Luxury Hotel",
        "source": "http://www.avari.com/property/beach-luxury",
        "tourism": "hotel"
      },
      "geometry": {
        "type": "Point",
        "coordinates": [
          66.9956082,
          24.8438592
        ]
      },
      "id": "node/1147219109"
    },
    {
      "type": "Feature",
      "properties": {
        "@id": "node/1223111906",
        "name": "Shawal Hotel",
        "source": "photograph",
        "tourism": "hotel"
      },
      "geometry": {
        "type": "Point",
        "coordinates": [
          71.5822004,
          34.0148846
        ]
      },
      "id": "node/1223111906"
    },
    {
      "type": "Feature",
      "properties": {
        "@id": "node/1223943705",
        "name": "Blue Palace",
        "tourism": "hotel"
      },
      "geometry": {
        "type": "Point",
        "coordinates": [
          71.5021855,
          33.9902134
        ]
      },
      "id": "node/1223943705"
    },
    {
      "type": "Feature",
      "properties": {
        "@id": "node/1224121359",
        "name": "Grand Hotel",
        "tourism": "hotel"
      },
      "geometry": {
        "type": "Point",
        "coordinates": [
          71.508882,
          34.0072046
        ]
      },
      "id": "node/1224121359"
    },
    {
      "type": "Feature",
      "properties": {
        "@id": "node/1224121362",
        "amenity": "restaurant",
        "brand": "کینٹکی فرائیڈ چکن",
        "brand:ar": "دجاج كنتاكي",
        "brand:en": "KFC",
        "brand:fa": "کی‌اف‌سی",
        "brand:ur": "کینٹکی فرائیڈ چکن",
        "brand:wikipedia": "ur:کینٹکی فرائیڈ چکن",
        "brand:wikipedia:ar": "دجاج كنتاكي",
        "brand:wikipedia:fa": "کی‌اف‌سی",
        "brand:wikipedia:ur": "کینٹکی فرائیڈ چکن",
        "cuisine": "chicken",
        "name": "کینٹکی فرائیڈ چکن",
        "name:ar": "دجاج كنتاكي",
        "name:en": "KFC",
        "name:fa": "کی‌اف‌سی",
        "name:ur": "کینٹکی فرائیڈ چکن"
      },
      "geometry": {
        "type": "Point",
        "coordinates": [
          71.5255332,
          34.0072935
        ]
      },
      "id": "node/1224121362"
    },
    {
      "type": "Feature",
      "properties": {
        "@id": "node/1224127555",
        "amenity": "school",
        "name": "Fauji Foundation School"
      },
      "geometry": {
        "type": "Point",
        "coordinates": [
          71.5331494,
          34.0124548
        ]
      },
      "id": "node/1224127555"
    },
    {
      "type": "Feature",
      "properties": {
        "@id": "node/1224286127",
        "amenity": "hospital",
        "healthcare": "hospital",
        "name": "Kidney Disease Centre"
      },
      "geometry": {
        "type": "Point",
        "coordinates": [
          71.4465687,
          33.9918034
        ]
      },
      "id": "node/1224286127"
    },
    {
      "type": "Feature",
      "properties": {
        "@id": "node/1224286129",
        "amenity": "school",
        "name": "Hyatabad Science College",
        "name:en": "frontier science college"
      },
      "geometry": {
        "type": "Point",
        "coordinates": [
          71.4526606,
          33.9904335
        ]
      },
      "id": "node/1224286129"
    },
    {
      "type": "Feature",
      "properties": {
        "@id": "node/1224286131",
        "amenity": "school",
        "name": "Post Graduate Medical Institute"
      },
      "geometry": {
        "type": "Point",
        "coordinates": [
          71.4446561,
          33.9936813
        ]
      },
      "id": "node/1224286131"
    },
    {
      "type": "Feature",
      "properties": {
        "@id": "node/1224286143",
        "amenity": "school",
        "name": "College of Physicians and Surgeons"
      },
      "geometry": {
        "type": "Point",
        "coordinates": [
          71.4519332,
          33.993369
        ]
      },
      "id": "node/1224286143"
    },
    {
      "type": "Feature",
      "properties": {
        "@id": "node/1224404628",
        "amenity": "school",
        "name": "ILM"
      },
      "geometry": {
        "type": "Point",
        "coordinates": [
          71.4339076,
          33.9887068
        ]
      },
      "id": "node/1224404628"
    },
    {
      "type": "Feature",
      "properties": {
        "@id": "node/1224404638",
        "amenity": "school",
        "name": "University of Engineering and Technology Continueing Education Department"
      },
      "geometry": {
        "type": "Point",
        "coordinates": [
          71.4349409,
          33.988992
        ]
      },
      "id": "node/1224404638"
    },
    {
      "type": "Feature",
      "properties": {
        "@id": "node/1224404641",
        "amenity": "school",
        "name": "Frontier Youth Academy"
      },
      "geometry": {
        "type": "Point",
        "coordinates": [
          71.4524803,
          33.9892859
        ]
      },
      "id": "node/1224404641"
    },
    {
      "type": "Feature",
      "properties": {
        "@id": "node/1224404650",
        "amenity": "school",
        "name": "Frontier Children's Academy"
      },
      "geometry": {
        "type": "Point",
        "coordinates": [
          71.4504923,
          33.9884636
        ]
      },
      "id": "node/1224404650"
    },
    {
      "type": "Feature",
      "properties": {
        "@id": "node/1224404657",
        "amenity": "hospital",
        "emergency": "yes",
        "healthcare": "hospital",
        "name": "Northwest General Hospital & Research Cnter"
      },
      "geometry": {
        "type": "Point",
        "coordinates": [
          71.435904,
          33.9939681
        ]
      },
      "id": "node/1224404657"
    },
    {
      "type": "Feature",
      "properties": {
        "@id": "node/1226368841",
        "amenity": "restaurant",
        "cuisine": "international",
        "name": "Chief Grill"
      },
      "geometry": {
        "type": "Point",
        "coordinates": [
          71.4923809,
          33.9972917
        ]
      },
      "id": "node/1226368841"
    },
    {
      "type": "Feature",
      "properties": {
        "@id": "node/1226378412",
        "amenity": "hospital",
        "emergency": "yes",
        "healthcare": "hospital",
        "name": "ICRC Wound Trauma Hospital"
      },
      "geometry": {
        "type": "Point",
        "coordinates": [
          71.4896082,
          33.9960712
        ]
      },
      "id": "node/1226378412"
    },
    {
      "type": "Feature",
      "properties": {
        "@id": "node/1226378419",
        "amenity": "restaurant",
        "cuisine": "international",
        "name": "Kazbah"
      },
      "geometry": {
        "type": "Point",
        "coordinates": [
          71.489222,
          33.9917304
        ]
      },
      "id": "node/1226378419"
    },
    {
      "type": "Feature",
      "properties": {
        "@id": "node/1226378422",
        "amenity": "hospital",
        "emergency": "no",
        "healthcare": "hospital",
        "name": "Kulsoom Maternity Home"
      },
      "geometry": {
        "type": "Point",
        "coordinates": [
          71.4917862,
          33.9911788
        ]
      },
      "id": "node/1226378422"
    },
    {
      "type": "Feature",
      "properties": {
        "@id": "node/1226378423",
        "amenity": "school",
        "name": "Peshawar Business School"
      },
      "geometry": {
        "type": "Point",
        "coordinates": [
          71.4936852,
          33.9903605
        ]
      },
      "id": "node/1226378423"
    },
    {
      "type": "Feature",
      "properties": {
        "@id": "node/1226378424",
        "amenity": "hospital",
        "healthcare": "hospital",
        "name": "Shakat Khanum Clinic"
      },
      "geometry": {
        "type": "Point",
        "coordinates": [
          71.4913356,
          33.9908497
        ]
      },
      "id": "node/1226378424"
    },
    {
      "type": "Feature",
      "properties": {
        "@id": "node/1226378425",
        "amenity": "school",
        "name": "Gandhara College of Pharmacy"
      },
      "geometry": {
        "type": "Point",
        "coordinates": [
          71.4895761,
          33.9920417
        ]
      },
      "id": "node/1226378425"
    },
    {
      "type": "Feature",
      "properties": {
        "@id": "node/1226398110",
        "amenity": "hospital",
        "emergency": "yes",
        "healthcare": "hospital",
        "name": "Khyber Teaching Hospital - Accident and Emergency"
      },
      "geometry": {
        "type": "Point",
        "coordinates": [
          71.485682,
          33.9962843
        ]
      },
      "id": "node/1226398110"
    },
    {
      "type": "Feature",
      "properties": {
        "@id": "node/1236657819",
        "amenity": "restaurant",
        "cmt": "18-DEC-09 9:00:46",
        "description": "18-DEC-09 9:00:46",
        "ele": "977.779053",
        "name": "Resturant",
        "source": "GPS",
        "sym": "Restaurant"
      },
      "geometry": {
        "type": "Point",
        "coordinates": [
          67.3148238,
          29.8595788
        ]
      },
      "id": "node/1236657819"
    },
    {
      "type": "Feature",
      "properties": {
        "@id": "node/1241932083",
        "amenity": "restaurant",
        "cmt": "21-DEC-09 20:34:12",
        "description": "21-DEC-09 20:34:12",
        "ele": "200.32",
        "name": "Bundu Khan",
        "source": "GPS",
        "sym": "Restaurant"
      },
      "geometry": {
        "type": "Point",
        "coordinates": [
          74.3155192,
          31.5654607
        ]
      },
      "id": "node/1241932083"
    },
    {
      "type": "Feature",
      "properties": {
        "@id": "node/1243928908",
        "addr:city": "اسلام آباد",
        "addr:city:ar": "إسلام آباد",
        "addr:city:en": "Islamabad",
        "addr:city:ks": "اِسلام آبادٖ",
        "addr:city:pnb": "اسلام آباد",
        "addr:city:ps": "اسلام آباد",
        "addr:city:sd": "اسلام آباد",
        "addr:city:ur": "اسلام آباد",
        "addr:street": "Agha Khan Road",
        "amenity": "restaurant",
        "brand": "Nando's",
        "brand:wikidata": "Q3472954",
        "brand:wikipedia": "en:Nando's",
        "cuisine": "chicken;portuguese",
        "name": "Nando's"
      },
      "geometry": {
        "type": "Point",
        "coordinates": [
          73.0779994,
          33.7299525
        ]
      },
      "id": "node/1243928908"
    },
    {
      "type": "Feature",
      "properties": {
        "@id": "node/1269536211",
        "amenity": "school"
      },
      "geometry": {
        "type": "Point",
        "coordinates": [
          74.2160241,
          31.4480732
        ]
      },
      "id": "node/1269536211"
    },
    {
      "type": "Feature",
      "properties": {
        "@id": "node/1289001376",
        "amenity": "hospital",
        "healthcare": "hospital",
        "name": "زبیدہ بنی ونگ",
        "name:en": "Zubaida Bani Wing",
        "name:ur": "زبیدہ بنی ونگ"
      },
      "geometry": {
        "type": "Point",
        "coordinates": [
          72.9162881,
          31.7581887
        ]
      },
      "id": "node/1289001376"
    },
    {
      "type": "Feature",
      "properties": {
        "@id": "node/1305478201",
        "addr:city": "Lahore",
        "addr:street": "Khayaban e Iqbal",
        "name": "Marvel Hotel",
        "tourism": "hotel"
      },
      "geometry": {
        "type": "Point",
        "coordinates": [
          74.3566633,
          31.4739223
        ]
      },
      "id": "node/1305478201"
    },
    {
      "type": "Feature",
      "properties": {
        "@id": "node/1336764426",
        "amenity": "school",
        "name": "F.G.School"
      },
      "geometry": {
        "type": "Point",
        "coordinates": [
          73.038169,
          33.6845941
        ]
      },
      "id": "node/1336764426"
    },
    {
      "type": "Feature",
      "properties": {
        "@id": "node/1336800177",
        "addr:housename": "Mehraaj Hotel",
        "addr:street": "Rohtas Road",
        "amenity": "restaurant",
        "name": "Mehraaj Hotel",
        "source": "Yahoo + Local Knowledge"
      },
      "geometry": {
        "type": "Point",
        "coordinates": [
          73.0325471,
          33.6882811
        ]
      },
      "id": "node/1336800177"
    },
    {
      "type": "Feature",
      "properties": {
        "@id": "node/1340843878",
        "addr:street": "55",
        "amenity": "restaurant",
        "name": "Shanwari Resturant‎",
        "source": "Yahoo + Local knowlege"
      },
      "geometry": {
        "type": "Point",
        "coordinates": [
          73.0428398,
          33.68505
        ]
      },
      "id": "node/1340843878"
    },
    {
      "type": "Feature",
      "properties": {
        "@id": "node/1341931423",
        "addr:city": "اسلام آباد",
        "addr:city:ar": "إسلام آباد",
        "addr:city:en": "Islamabad",
        "addr:city:ks": "اِسلام آبادٖ",
        "addr:city:pnb": "اسلام آباد",
        "addr:city:ps": "اسلام آباد",
        "addr:city:sd": "اسلام آباد",
        "addr:city:ur": "اسلام آباد",
        "addr:street": "Street 14",
        "amenity": "school",
        "name": "F.G.Girls Collage No. 9 G-9/2",
        "source": "Yahoo + Local knowledge"
      },
      "geometry": {
        "type": "Point",
        "coordinates": [
          73.0264346,
          33.6892572
        ]
      },
      "id": "node/1341931423"
    },
    {
      "type": "Feature",
      "properties": {
        "@id": "node/1350054380",
        "amenity": "restaurant",
        "name": "Fork restaurant",
        "source": "ABC"
      },
      "geometry": {
        "type": "Point",
        "coordinates": [
          71.5594087,
          34.0204974
        ]
      },
      "id": "node/1350054380"
    },
    {
      "type": "Feature",
      "properties": {
        "@id": "node/1357553198",
        "addr:city": "Lahore",
        "addr:street": "Khayaban-e-Firdousi",
        "amenity": "hospital",
        "emergency": "yes",
        "name": "Saadan Hospital"
      },
      "geometry": {
        "type": "Point",
        "coordinates": [
          74.2992722,
          31.469851
        ]
      },
      "id": "node/1357553198"
    },
    {
      "type": "Feature",
      "properties": {
        "@id": "node/1357561220",
        "addr:city": "Lahore",
        "addr:street": "Maulana Shaukat Ali Road",
        "amenity": "hospital",
        "name": "Iqra Medical Complex"
      },
      "geometry": {
        "type": "Point",
        "coordinates": [
          74.3055729,
          31.4678948
        ]
      },
      "id": "node/1357561220"
    },
    {
      "type": "Feature",
      "properties": {
        "@id": "node/1357767174",
        "amenity": "restaurant",
        "cuisine": "chinese",
        "name": "Mei Kong"
      },
      "geometry": {
        "type": "Point",
        "coordinates": [
          73.0485574,
          33.5969518
        ]
      },
      "id": "node/1357767174"
    },
    {
      "type": "Feature",
      "properties": {
        "@id": "node/1360672835",
        "amenity": "school",
        "name": "Beacon House"
      },
      "geometry": {
        "type": "Point",
        "coordinates": [
          73.111379,
          33.5683449
        ]
      },
      "id": "node/1360672835"
    },
    {
      "type": "Feature",
      "properties": {
        "@id": "node/1362714223",
        "amenity": "hospital",
        "name": "Safari Hospital"
      },
      "geometry": {
        "type": "Point",
        "coordinates": [
          73.1063687,
          33.5732
        ]
      },
      "id": "node/1362714223"
    },
    {
      "type": "Feature",
      "properties": {
        "@id": "node/1363495811",
        "amenity": "restaurant",
        "name": "Papasallis"
      },
      "geometry": {
        "type": "Point",
        "coordinates": [
          73.0732986,
          33.5861681
        ]
      },
      "id": "node/1363495811"
    },
    {
      "type": "Feature",
      "properties": {
        "@id": "node/1365195166",
        "amenity": "school",
        "name": "Army Public School"
      },
      "geometry": {
        "type": "Point",
        "coordinates": [
          73.0879988,
          33.5898178
        ]
      },
      "id": "node/1365195166"
    },
    {
      "type": "Feature",
      "properties": {
        "@id": "node/1366525560",
        "amenity": "hospital",
        "name": "Combined Military Hospital"
      },
      "geometry": {
        "type": "Point",
        "coordinates": [
          74.3725825,
          31.5406655
        ]
      },
      "id": "node/1366525560"
    },
    {
      "type": "Feature",
      "properties": {
        "@id": "node/1410491679",
        "addr:city": "Karachi",
        "addr:street": "Allama Shabbir Ahmed Usmani Road",
        "amenity": "hospital",
        "name": "RAB Medical Centre"
      },
      "geometry": {
        "type": "Point",
        "coordinates": [
          67.0885875,
          24.9223154
        ]
      },
      "id": "node/1410491679"
    },
    {
      "type": "Feature",
      "properties": {
        "@id": "node/1410491682",
        "addr:city": "Karachi",
        "amenity": "hospital",
        "healthcare": "hospital",
        "name": "Samdani Hospital",
        "name:ur": "صمدانی ہسپتال"
      },
      "geometry": {
        "type": "Point",
        "coordinates": [
          67.088304,
          24.9216319
        ]
      },
      "id": "node/1410491682"
    },
    {
      "type": "Feature",
      "properties": {
        "@id": "node/1412374749",
        "amenity": "school",
        "name": "The State School"
      },
      "geometry": {
        "type": "Point",
        "coordinates": [
          73.0944878,
          33.5843641
        ]
      },
      "id": "node/1412374749"
    },
    {
      "type": "Feature",
      "properties": {
        "@id": "node/1412407873",
        "amenity": "restaurant",
        "designation": "Bar B Q Resturant",
        "name": "Resturant"
      },
      "geometry": {
        "type": "Point",
        "coordinates": [
          73.0901107,
          33.5850213
        ]
      },
      "id": "node/1412407873"
    },
    {
      "type": "Feature",
      "properties": {
        "@id": "node/1412407885",
        "amenity": "school",
        "name": "Quaid Azam School"
      },
      "geometry": {
        "type": "Point",
        "coordinates": [
          73.0870109,
          33.5902272
        ]
      },
      "id": "node/1412407885"
    },
    {
      "type": "Feature",
      "properties": {
        "@id": "node/1412407907",
        "amenity": "restaurant",
        "name": "Resturant"
      },
      "geometry": {
        "type": "Point",
        "coordinates": [
          73.0877074,
          33.5862189
        ]
      },
      "id": "node/1412407907"
    },
    {
      "type": "Feature",
      "properties": {
        "@id": "node/1414264851",
        "amenity": "restaurant",
        "cuisine": "regional",
        "name": "Resturant"
      },
      "geometry": {
        "type": "Point",
        "coordinates": [
          73.0528873,
          33.5965369
        ]
      },
      "id": "node/1414264851"
    },
    {
      "type": "Feature",
      "properties": {
        "@id": "node/1414264867",
        "amenity": "restaurant",
        "name": "Resturants",
        "wheelchair": "yes"
      },
      "geometry": {
        "type": "Point",
        "coordinates": [
          73.0505275,
          33.5964386
        ]
      },
      "id": "node/1414264867"
    },
    {
      "type": "Feature",
      "properties": {
        "@id": "node/1414324516",
        "amenity": "restaurant",
        "cuisine": "chinese",
        "name": "Kim Fah Chinese restaurant "
      },
      "geometry": {
        "type": "Point",
        "coordinates": [
          73.0493474,
          33.5952143
        ]
      },
      "id": "node/1414324516"
    },
    {
      "type": "Feature",
      "properties": {
        "@id": "node/1420044386",
        "amenity": "school",
        "name": "Beacon House Jr."
      },
      "geometry": {
        "type": "Point",
        "coordinates": [
          73.1110017,
          33.5694207
        ]
      },
      "id": "node/1420044386"
    },
    {
      "type": "Feature",
      "properties": {
        "@id": "node/1420044397",
        "amenity": "school",
        "name": "Educators' School"
      },
      "geometry": {
        "type": "Point",
        "coordinates": [
          73.1079312,
          33.5649133
        ]
      },
      "id": "node/1420044397"
    },
    {
      "type": "Feature",
      "properties": {
        "@id": "node/1420044400",
        "amenity": "school",
        "name": "Citi School"
      },
      "geometry": {
        "type": "Point",
        "coordinates": [
          73.1064077,
          33.5655212
        ]
      },
      "id": "node/1420044400"
    },
    {
      "type": "Feature",
      "properties": {
        "@id": "node/1420044401",
        "amenity": "school",
        "name": "Citi School"
      },
      "geometry": {
        "type": "Point",
        "coordinates": [
          73.106323,
          33.5640492
        ]
      },
      "id": "node/1420044401"
    },
    {
      "type": "Feature",
      "properties": {
        "@id": "node/1420044402",
        "amenity": "school",
        "name": "Daar Ul Arqam School"
      },
      "geometry": {
        "type": "Point",
        "coordinates": [
          73.1109245,
          33.5671929
        ]
      },
      "id": "node/1420044402"
    },
    {
      "type": "Feature",
      "properties": {
        "@id": "node/1420044408",
        "amenity": "school",
        "name": "Air Foundation School"
      },
      "geometry": {
        "type": "Point",
        "coordinates": [
          73.1069549,
          33.5650474
        ]
      },
      "id": "node/1420044408"
    },
    {
      "type": "Feature",
      "properties": {
        "@id": "node/1420044411",
        "amenity": "school",
        "name": "Roots School"
      },
      "geometry": {
        "type": "Point",
        "coordinates": [
          73.1105169,
          33.5698748
        ]
      },
      "id": "node/1420044411"
    },
    {
      "type": "Feature",
      "properties": {
        "@id": "node/1420080299",
        "amenity": "school",
        "name": "FG College for Women"
      },
      "geometry": {
        "type": "Point",
        "coordinates": [
          73.0578919,
          33.5979489
        ]
      },
      "id": "node/1420080299"
    },
    {
      "type": "Feature",
      "properties": {
        "@id": "node/1420479747",
        "amenity": "school",
        "name": "Springboard School"
      },
      "geometry": {
        "type": "Point",
        "coordinates": [
          73.1067205,
          33.5725674
        ]
      },
      "id": "node/1420479747"
    },
    {
      "type": "Feature",
      "properties": {
        "@id": "node/1421143922",
        "amenity": "school"
      },
      "geometry": {
        "type": "Point",
        "coordinates": [
          73.1054968,
          33.5669191
        ]
      },
      "id": "node/1421143922"
    },
    {
      "type": "Feature",
      "properties": {
        "@id": "node/1421143927",
        "amenity": "school",
        "name": "Silver Oaks School"
      },
      "geometry": {
        "type": "Point",
        "coordinates": [
          73.1063014,
          33.5634951
        ]
      },
      "id": "node/1421143927"
    },
    {
      "type": "Feature",
      "properties": {
        "@id": "node/1428217425",
        "addr:city": "Karachi",
        "addr:country": "PK",
        "addr:postcode": "75020",
        "addr:province": "Sindh",
        "amenity": "hospital",
        "name": "Family Wing"
      },
      "geometry": {
        "type": "Point",
        "coordinates": [
          66.9452126,
          24.8810104
        ]
      },
      "id": "node/1428217425"
    },
    {
      "type": "Feature",
      "properties": {
        "@id": "node/1428217451",
        "addr:city": "Karachi",
        "addr:country": "PK",
        "addr:postcode": "75020",
        "addr:province": "Sindh",
        "amenity": "school",
        "name": "Fizaia School and College"
      },
      "geometry": {
        "type": "Point",
        "coordinates": [
          66.9411142,
          24.8789956
        ]
      },
      "id": "node/1428217451"
    },
    {
      "type": "Feature",
      "properties": {
        "@id": "node/1428217500",
        "addr:city": "Karachi",
        "addr:country": "PK",
        "addr:postcode": "75020",
        "addr:province": "Sindh",
        "amenity": "hospital",
        "name": "PAF Hospital"
      },
      "geometry": {
        "type": "Point",
        "coordinates": [
          66.9471331,
          24.8819837
        ]
      },
      "id": "node/1428217500"
    },